City,Country,Latitude,Longitude,Temperature,Humidity,PM2.5,PM10,NO2,SO2,CO,AQI,Air_Quality_Category,Population_Density,Proximity_to_Industrial_Areas,Timestamp
"Palacio Municipal Cuautla, Cuautla, Morelos, Mexico",Mexico,18.812986944444,-98.955305833333,30.0,20.0,93.0,,2.5,2.1,5.0,93,Moderate,,,2026-05-17T02:44:22.880258
"Santa Fe, Jalisco, Mexico",Mexico,20.528912,-103.377146,33.0,13.0,55.0,34.0,9.0,2.8,9.2,55,Moderate,,,2026-05-17T02:44:26.612815
"Vallarta, Guadalajara, Mexico",Mexico,20.680450840176,-103.39873310432,28.0,37.0,121.0,80.0,,,11.0,121,Poor,,,2026-05-17T02:44:29.872828
"Las Pintas, Guadalajara, Mexico",Mexico,20.5767,-103.32652222222,33.0,13.0,40.0,5.0,5.2,4.9,2.4,40,Good,,,2026-05-17T02:44:32.882275
"Palacio Municipal, Municipio de Mexicali, Baja California - Municipal, Mexico",Mexico,32.640027777778,-115.47463888889,36.1,21.0,53.0,33.0,5.3,,3.9,53,Moderate,,,2026-05-17T02:44:42.883677
"Miravalle, Guadalajara, Mexico",Mexico,20.61504997567,-103.34343019128,33.0,13.0,38.0,30.0,4.0,1.7,3.3,43,Good,,,2026-05-17T02:44:46.615837
"Aguilas, Jalisco, Mexico",Mexico,20.629602722222224,-103.41677252777778,33.0,13.0,22.0,29.0,2.5,2.8,2.8,36,Good,,,2026-05-17T02:44:52.887726
"Secundaria Leyes de Reforma, Aguascalientes, Mexico",Mexico,21.903003362672,-102.28461279505,32.2,17.0,114.0,23.0,4.2,,,114,Poor,,,2026-05-17T02:44:57.618006
"Centro, Jalisco, Mexico",Mexico,20.67236666666667,-103.33335883333334,28.0,37.0,78.0,59.0,3.5,2.8,5.0,78,Moderate,,,2026-05-17T02:45:00.888490
"Centro de Salud, Apizaco, Tlaxcala, Mexico",Mexico,19.409853333333,-98.150011111111,31.0,62.0,78.0,34.0,,0.1,5.0,78,Moderate,,,2026-05-17T02:45:03.878903
"Loma Dorada, Guadalajara, Mexico",Mexico,20.629554249053,-103.26392977309,33.0,13.0,,38.0,3.0,,3.8,42,Good,,,2026-05-17T02:45:09.890629
"US Embassy, Guatemala City, Guatemala",Guatemala,14.6069387,-90.5169696,15.0,87.0,61.0,,,,,61,Moderate,,,2026-05-17T02:45:15.622072
"San Salvador Este, El Salavor",El Salvador,13.71518889,-89.15481944,28.0,61.0,9.0,,,,,-,,,,2026-05-17T02:45:20.894008
"ITCA, Santa Tecla, El Salavor",El Salvador,13.673168,-89.279399,24.0,62.0,93.0,,,,,93,Moderate,,,2026-05-17T02:45:23.882232
"UTEC Campus, San Salvador, El Salavor",El Salvador,13.6999671,-89.2010843,30.9,88.8,91.0,,,,,91,Moderate,,,2026-05-17T02:45:27.623461
"San Salvador Centro, El Salavor",El Salvador,13.70630556,-89.20011667,25.5,70.7,,,,,,-,,,,2026-05-17T02:45:31.895362
"San Jose US Embassy, Costa Rica",Costa Rica,9.949488,-84.142876,20.9,69.2,38.0,,,,,38,Good,,,2026-05-17T02:45:35.625908
"Fontibon, Bogota, Colombia",Colombia,4.6782472,-74.1438166,20.4,35.6,29.0,29.0,3.6,1.4,1.8,29,Good,,,2026-05-17T02:46:22.904984
"Tunal, Bogota, Colombia",Colombia,4.57619,-74.13093,20.0,39.0,25.0,10.0,2.8,0.7,,25,Good,,,2026-05-17T02:46:27.634487
"Carvajal - Sevillana, Bogota, Colombia",Colombia,4.5958,-74.14855,22.7,49.0,13.0,,,0.4,7.1,13,Good,,,2026-05-17T02:46:30.906322
"Movil 7ma, Bogota, Colombia",Colombia,4.645228,-74.06152,23.1,35.3,13.0,7.0,,,,13,Good,,,2026-05-17T02:46:33.895927
"Las Ferias, Bogota, Colombia",Colombia,4.6906,-74.08256,20.6,42.0,17.0,15.0,2.3,,2.6,17,Good,,,2026-05-17T02:46:39.907849
"Puente Aranda, Bogota, Colombia",Colombia,4.63187,-74.11757,20.0,43.0,16.0,18.0,4.9,,3.4,18,Good,,,2026-05-17T02:46:43.637058
"Cotocollao, Quito, Ecuador",Ecuador,-0.107777,-78.497222,12.8,93.0,48.0,26.0,24.0,2.5,9.3,48,Good,,,2026-05-17T02:46:47.911008
"El Camal, Quito, Ecuador",Ecuador,-0.25,-78.51,13.66,93.0,45.0,,30.8,5.4,14.7,45,Good,,,2026-05-17T02:46:51.637663
"Centro, Quito, Ecuador",Ecuador,-0.221393,-78.514005,12.59,93.0,44.0,,13.6,4.3,22.3,44,Good,,,2026-05-17T02:46:54.898006
"Belisario, Quito, Ecuador",Ecuador,-0.184719,-78.495986,12.59,93.0,101.0,26.0,21.3,0.3,6.1,26,Good,,,2026-05-17T02:46:57.913443
"Los Chillos, Quito, Ecuador",Ecuador,-0.297062,-78.455248,14.62,93.0,,,23.3,9.9,10.0,1,Good,,,2026-05-17T02:47:01.639140
"estacion01, Cuenca, Ecuador",Ecuador,-2.897,-79.003,23.0,18.0,151.0,,130.2,9.7,4.6,151,Poor,,,2026-05-17T02:47:04.899702
"estacion02, Cuenca, Ecuador",Ecuador,-2.879789,-78.980213,23.0,18.0,134.0,,130.2,9.7,4.6,142,Poor,,,2026-05-17T02:47:07.914632
"estacion03, Cuenca, Ecuador",Ecuador,-2.879889,-78.981213,15.0,87.0,51.0,,16.5,4.6,9.5,51,Moderate,,,2026-05-17T02:47:11.640070
"Tumbaco, Quito, Ecuador",Ecuador,-0.214933,-78.403253,15.29,93.0,43.0,,29.0,4.1,,43,Good,,,2026-05-17T02:47:14.901310
"Carapungo, Quito, Ecuador",Ecuador,-0.095472,-78.449809,14.42,93.0,64.0,26.0,29.4,3.6,10.0,64,Moderate,,,2026-05-17T02:47:19.679482
"San Juan De Lurigancho, Lima, Peru",Peru,-11.98164,-76.99925,21.1,83.0,80.0,34.0,12.2,5.4,9.0,80,Moderate,,,2026-05-17T02:47:22.917862
"Campo De Marte, Lima, Peru",Peru,-12.07054,-77.04322,21.1,83.0,69.0,28.0,17.8,6.8,6.3,69,Moderate,,,2026-05-17T02:47:26.643887
"San Borja, Lima, Peru",Peru,-12.10859,-77.00769,21.1,83.0,65.0,43.0,7.0,13.8,7.0,65,Moderate,,,2026-05-17T02:47:29.903423
"San Martin De Porres, Lima, Peru",Peru,-12.00889,-77.08447,21.1,83.0,57.0,19.0,12.3,5.8,6.2,57,Moderate,,,2026-05-17T02:47:32.919043
"Santa Anita, Lima, Peru",Peru,-12.04302,-76.97144,21.1,83.0,,51.0,14.8,5.5,8.0,51,Moderate,,,2026-05-17T02:47:36.645395
"Villa Maria Del Triunfo, Lima, Peru",Peru,-12.16639,-76.92,21.1,83.0,41.0,13.0,6.5,13.7,9.9,41,Good,,,2026-05-17T02:47:39.906706
"US Embassy, Lima, Peru",Peru,-12.1052081,-76.9709299,23.3,84.0,34.0,,,,,34,Good,,,2026-05-17T02:47:42.921794
"Huachipa, Lima, Peru",Peru,-12.01689,-76.94883,22.2,75.0,193.0,155.0,8.4,33.0,200.9,33,Good,,,2026-05-17T02:47:46.683916
"Ate, Lima, Peru",Peru,-12.02611,-76.91861,22.8,85.3,,,,,,-,,,,2026-05-17T02:47:49.647336
"Carabayllo, Lima, Peru",Peru,-11.90219,-77.03364,21.1,83.0,,,13.2,3.5,6.1,6,Good,,,2026-05-17T02:47:52.923395
"Puente Piedra, Lima, Peru",Peru,-11.86325,-77.07413,21.1,83.0,68.0,,25.7,3.4,13.6,68,Moderate,,,2026-05-17T02:47:55.910731
"Velachery Res. Area, Chennai, Chennai, India",Peru,13.0052189,80.2398125,30.0,84.72,61.0,50.0,4.3,2.0,,50,Good,,,2026-05-17T02:47:59.689147
"IIT, Chennai, Chennai, India",Peru,12.99251389,80.23744722,30.0,62.0,,,,,,-,,,,2026-05-17T02:48:03.925279
"Parque Kanata, Cochabamba, Bolivia",Bolivia,-17.4125902,-66.1584437,19.0,34.0,,51.0,18.9,,,51,Moderate,,,2026-05-17T02:48:17.927641
"Fuerza Aerea, Cochabamba, Bolivia",Bolivia,-17.4197854,-66.1685226,19.0,34.0,,49.0,,,,49,Good,,,2026-05-17T02:48:20.915621
"Semapa, Cochabamba, Bolivia",Bolivia,-17.3609718,-66.1607009,19.0,34.0,,25.0,,,,25,Good,,,2026-05-17T02:48:23.690610
"Linares, Chile",Chile,-35.836942234921,-71.592865853985,5.0,93.0,70.0,,,,,70,Moderate,,,2026-05-17T02:48:59.935310
"Padre Las Casas II, Chile",Chile,-38.764767451719,-72.598795682209,12.9,60.8,38.0,12.0,8.9,,0.9,38,Good,,,2026-05-17T02:49:03.659498
"Osorno, Chile",Chile,-40.584478665958,-73.11871982209,4.7,95.0,189.0,85.0,,,,189,Poor,,,2026-05-17T02:49:06.699851
"Rengo, Chile",Chile,-34.394541417902,-70.852981542328,13.8,69.1,89.0,36.0,,,,89,Moderate,,,2026-05-17T02:49:11.661327
"San Fernando, Chile",Chile,-27.393267718517,-70.298615435165,14.0,76.0,172.0,76.0,,,,172,Poor,,,2026-05-17T02:49:15.938199
"La Florida 2, Chile",Chile,-35.435141887663,-71.678261499336,6.6,94.0,53.0,18.0,3.3,3.3,3.7,53,Moderate,,,2026-05-17T02:49:20.662050
"La Florida, Chile",Chile,-33.516630362266,-70.588123961971,19.0,29.0,68.0,35.0,9.8,8.4,0.6,68,Moderate,,,2026-05-17T02:49:27.939994
"Vialidad, Chile",Chile,-45.40680023471,-72.696259617805,-2.0,92.0,164.0,,,,,164,Poor,,,2026-05-17T02:49:31.665120
"Nueva Libertad, Chile",Chile,-36.735998,-73.118693,16.0,55.0,30.0,23.0,16.4,6.7,2.4,30,Good,,,2026-05-17T02:49:36.708402
"Balneario Curanilahue, Chile",Chile,-37.485131692556,-73.331626473541,8.0,81.0,160.0,,,,,160,Poor,,,2026-05-17T02:49:39.666788
"Kingston College, Chile",Chile,-36.784653741124,-73.052063025795,16.0,55.0,17.0,14.0,4.7,0.6,2.3,17,Good,,,2026-05-17T02:49:42.943310
"Puente Alto, Chile",Chile,-33.591390623022,-70.594788,9.0,66.0,157.0,100.0,32.8,,21.6,157,Poor,,,2026-05-17T02:49:47.711267
"Rancagua I, Chile",Chile,-34.162314609087,-70.713919225517,5.2,89.5,154.0,68.0,,1.5,9.7,154,Poor,,,2026-05-17T02:49:50.668021
"US Embassy, Buenos Aires, Argentina",Argentina,-34.5773,-58.4176,25.0,72.9,5.0,,,,,5,Good,,,2026-05-17T02:49:55.943600
"Centenario, Buenos Aires, Argentina",Argentina,-34.635582,-58.5518647,24.0,53.0,,,,,,-,,,,2026-05-17T02:49:58.945755
"Cordoba, Buenos Aires, Argentina",Argentina,-34.5995674,-58.3915767,25.0,61.0,,,,,,-,,,,2026-05-17T02:50:02.669917
"La boca, Buenos Aires, Argentina",Argentina,-34.6344961,-58.3631337,25.0,61.0,,,,,,-,,,,2026-05-17T02:50:05.949739
"Dock Sud 1, Acumar, Argentina",Argentina,-34.657988,-58.342538,23.8,65.3,,,,,,-,,,,2026-05-17T02:50:09.716151
"La Matanza, Acumar, Argentina",Argentina,-34.6775885,-58.701767,20.2,88.8,,,,,,-,,,,2026-05-17T02:50:12.672840
"Argentina, Asturias, Spain",Argentina,43.53880000013,-5.6989000001636,15.1,73.3,21.0,5.0,9.6,0.6,0.1,21,Good,,,2026-05-17T02:50:15.948549
