City,Country,Latitude,Longitude,Temperature,Humidity,PM2.5,PM10,NO2,SO2,CO,AQI,Air_Quality_Category,Population_Density,Proximity_to_Industrial_Areas,Timestamp
"Vallarta, Guadalajara, Mexico",Mexico,20.680450840176,-103.39873310432,24.0,60.0,114.0,55.0,,,,114,Poor,,,2026-06-20T02:56:14.294654
"Santa Fe, Jalisco, Mexico",Mexico,20.528912,-103.377146,24.0,60.0,87.0,32.0,13.3,3.2,11.2,87,Moderate,,,2026-06-20T02:56:19.221085
"Miravalle, Guadalajara, Mexico",Mexico,20.61504997567,-103.34343019128,24.0,60.0,76.0,64.0,16.8,2.0,8.2,76,Moderate,,,2026-06-20T02:56:24.295803
"Secundaria Leyes de Reforma, Aguascalientes, Mexico",Mexico,21.903003362672,-102.28461279505,18.8,84.0,74.0,27.0,15.0,,,74,Moderate,,,2026-06-20T02:56:28.224170
"Las Pintas, Guadalajara, Mexico",Mexico,20.5767,-103.32652222222,24.0,60.0,73.0,51.0,10.8,6.5,6.7,73,Moderate,,,2026-06-20T02:56:32.034950
"Guanajuato Universidad Gto Sede Belen, Mexico",Mexico,21.017583333333,-101.25736111111,20.4,72.9,72.0,,,,,72,Moderate,,,2026-06-20T02:56:35.297417
"Centro, Jalisco, Mexico",Mexico,20.67236666666667,-103.33335883333334,24.0,60.0,70.0,42.0,17.9,3.7,11.9,70,Moderate,,,2026-06-20T02:56:38.225716
"Oblatos, Jalisco, Mexico",Mexico,20.699048277777777,-103.29667683333334,24.0,60.0,63.0,34.0,12.8,3.2,9.4,63,Moderate,,,2026-06-20T02:56:50.298871
"Atemajac, Jalisco, Mexico",Mexico,20.718180277777776,-103.35549144444444,24.0,60.0,63.0,41.0,16.5,3.2,10.6,63,Moderate,,,2026-06-20T02:56:53.227857
"Biblioteca, Tizayuca, Hidalgo, Mexico",Mexico,19.840583333333,-98.981333333333,17.2,78.5,61.0,21.0,16.7,3.4,11.6,61,Moderate,,,2026-06-20T02:56:57.040858
"Centro, Aguascalientes, Mexico",Mexico,21.883780555556,-102.295825,18.8,84.0,59.0,14.0,0.1,0.1,2.2,59,Moderate,,,2026-06-20T02:57:02.302119
"DIF, Mexico",Mexico,20.558094,-101.204941,16.1,98.6,59.0,34.0,4.9,16.5,15.2,59,Moderate,,,2026-06-20T02:57:05.229289
"US Embassy, Guatemala City, Guatemala",Guatemala,14.6069387,-90.5169696,15.0,87.0,61.0,,,,,61,Moderate,,,2026-06-20T02:57:11.302597
"San Salvador Este, El Salavor",El Salvador,13.71518889,-89.15481944,24.4,82.5,9.0,,,,,-,,,,2026-06-20T02:57:17.362103
"ITCA, Santa Tecla, El Salavor",El Salvador,13.673168,-89.279399,24.0,62.0,93.0,,,,,93,Moderate,,,2026-06-20T02:57:20.506091
"UTEC Campus, San Salvador, El Salavor",El Salvador,13.6999671,-89.2010843,30.9,88.8,91.0,,,,,91,Moderate,,,2026-06-20T02:57:23.576551
"San Salvador Centro, El Salavor",El Salvador,13.70630556,-89.20011667,24.4,82.5,,,,,,-,,,,2026-06-20T02:57:28.397528
"San Jose US Embassy, Costa Rica",Costa Rica,9.949488,-84.142876,20.9,69.2,38.0,,,,,38,Good,,,2026-06-20T02:57:32.340330
"Carvajal - Sevillana, Bogota, Colombia",Colombia,4.5958,-74.14855,16.0,87.0,65.0,,,1.3,15.6,65,Moderate,,,2026-06-20T02:58:03.401281
"Tunal, Bogota, Colombia",Colombia,4.57619,-74.13093,14.0,72.0,38.0,11.0,3.6,0.4,,38,Good,,,2026-06-20T02:58:25.403798
"Fontibon, Bogota, Colombia",Colombia,4.6782472,-74.1438166,15.6,69.7,29.0,34.0,8.0,1.0,5.7,34,Good,,,2026-06-20T02:58:28.384861
"Guaymaral, Bogota, Colombia",Colombia,4.78374,-74.04417,14.9,68.0,21.0,16.0,2.3,0.4,2.7,21,Good,,,2026-06-20T02:58:31.524822
"Kennedy, Bogota, Colombia",Colombia,4.6249,-74.16135,14.0,69.7,12.0,20.0,6.8,1.6,9.1,20,Good,,,2026-06-20T02:58:34.594516
"San Cristobal, Bogota, Colombia",Colombia,4.5725,-74.0836,13.4,72.0,17.0,9.0,2.9,0.5,3.0,17,Good,,,2026-06-20T02:58:38.387096
"Movil 7ma, Bogota, Colombia",Colombia,4.645228,-74.06152,15.7,59.3,17.0,11.0,,,,17,Good,,,2026-06-20T02:58:41.526668
"Centro, Quito, Ecuador",Ecuador,-0.221393,-78.514005,13.19,93.0,68.0,,41.6,3.0,15.0,68,Moderate,,,2026-06-20T02:58:47.389230
"El Camal, Quito, Ecuador",Ecuador,-0.25,-78.51,18.72,30.0,56.0,,14.5,0.5,7.5,56,Moderate,,,2026-06-20T02:58:50.598430
"Cotocollao, Quito, Ecuador",Ecuador,-0.107777,-78.497222,13.62,93.0,48.0,,24.3,4.1,8.9,48,Good,,,2026-06-20T02:58:54.432447
"Belisario, Quito, Ecuador",Ecuador,-0.184719,-78.495986,13.19,93.0,24.0,,34.3,2.9,11.0,24,Good,,,2026-06-20T02:58:57.391084
"Los Chillos, Quito, Ecuador",Ecuador,-0.297062,-78.455248,15.42,93.0,,,21.7,7.3,5.6,10,Good,,,2026-06-20T02:59:00.532351
"estacion01, Cuenca, Ecuador",Ecuador,-2.897,-79.003,23.0,18.0,151.0,,130.2,9.7,4.6,151,Poor,,,2026-06-20T02:59:03.601191
"estacion02, Cuenca, Ecuador",Ecuador,-2.879789,-78.980213,23.0,18.0,134.0,,130.2,9.7,4.6,142,Poor,,,2026-06-20T02:59:07.392666
"estacion03, Cuenca, Ecuador",Ecuador,-2.879889,-78.981213,15.0,87.0,51.0,,16.5,4.6,9.5,51,Moderate,,,2026-06-20T02:59:10.534050
"Tumbaco, Quito, Ecuador",Ecuador,-0.214933,-78.403253,16.06,93.0,38.0,,17.5,0.6,,38,Good,,,2026-06-20T02:59:13.605900
"Carapungo, Quito, Ecuador",Ecuador,-0.095472,-78.449809,13.87,93.0,96.0,,19.3,5.3,10.2,5,Good,,,2026-06-20T02:59:18.394416
"San Martin De Porres, Lima, Peru",Peru,-12.00889,-77.08447,20.0,83.0,61.0,24.0,14.3,6.0,7.0,61,Moderate,,,2026-06-20T02:59:22.536428
"San Juan De Lurigancho, Lima, Peru",Peru,-11.98164,-76.99925,20.0,83.0,58.0,21.0,15.4,6.7,8.0,58,Moderate,,,2026-06-20T02:59:25.608444
"Campo De Marte, Lima, Peru",Peru,-12.07054,-77.04322,20.0,83.0,53.0,19.0,16.9,6.8,13.3,53,Moderate,,,2026-06-20T02:59:29.396394
"San Borja, Lima, Peru",Peru,-12.10859,-77.00769,20.0,83.0,52.0,32.0,18.3,4.7,7.4,52,Moderate,,,2026-06-20T02:59:32.538707
"Santa Anita, Lima, Peru",Peru,-12.04302,-76.97144,20.0,83.0,,28.0,13.4,5.5,9.5,28,Good,,,2026-06-20T02:59:35.439979
"Villa Maria Del Triunfo, Lima, Peru",Peru,-12.16639,-76.92,20.0,83.0,24.0,6.0,7.3,5.7,16.4,24,Good,,,2026-06-20T02:59:38.614319
"US Embassy, Lima, Peru",Peru,-12.1052081,-76.9709299,23.3,84.0,34.0,,,,,34,Good,,,2026-06-20T02:59:42.399855
"Huachipa, Lima, Peru",Peru,-12.01689,-76.94883,22.2,75.0,193.0,155.0,8.4,33.0,200.9,33,Good,,,2026-06-20T02:59:45.442452
"Ate, Lima, Peru",Peru,-12.02611,-76.91861,22.8,85.3,,,,,,-,,,,2026-06-20T02:59:48.617769
"Carabayllo, Lima, Peru",Peru,-11.90219,-77.03364,20.0,83.0,,,13.5,2.7,4.5,5,Good,,,2026-06-20T02:59:51.545055
"Puente Piedra, Lima, Peru",Peru,-11.86325,-77.07413,20.0,83.0,72.0,,28.5,3.8,15.3,72,Moderate,,,2026-06-20T02:59:55.402432
"Velachery Res. Area, Chennai, Chennai, India",Peru,13.0052189,80.2398125,30.2,73.31,98.0,43.0,4.7,1.9,,43,Good,,,2026-06-20T03:00:00.619970
"IIT, Chennai, Chennai, India",Peru,12.99251389,80.23744722,30.0,62.0,,,,,,-,,,,2026-06-20T03:00:04.548742
"Parque Kanata, Cochabamba, Bolivia",Bolivia,-17.4125902,-66.1584437,19.0,34.0,,51.0,18.9,,,51,Moderate,,,2026-06-20T03:00:20.407762
"Fuerza Aerea, Cochabamba, Bolivia",Bolivia,-17.4197854,-66.1685226,19.0,34.0,,49.0,,,,49,Good,,,2026-06-20T03:00:23.555355
"Semapa, Cochabamba, Bolivia",Bolivia,-17.3609718,-66.1607009,19.0,34.0,,25.0,,,,25,Good,,,2026-06-20T03:00:26.625885
"Alerce, Chile",Chile,-41.399169537038,-72.899522781372,7.0,93.0,455.0,,,,,455,Hazardous,,,2026-06-20T03:01:06.564071
"La Union, Chile",Chile,-40.286857441758,-73.076710459412,9.9,88.3,248.0,,,,,248,Poor,,,2026-06-20T03:01:11.427553
"Punta Arenas, Chile",Chile,-53.158295492238,-70.921497482453,5.0,93.0,226.0,,,,,226,Poor,,,2026-06-20T03:01:14.636290
"Coyhaique II, Chile",Chile,-45.579045667164,-72.049964505825,2.0,93.0,213.0,99.0,,2.5,16.7,213,Poor,,,2026-06-20T03:01:17.566115
"Cerro Navia, Chile",Chile,-33.433089610143,-70.732147868717,11.0,62.0,175.0,134.0,40.6,,38.5,175,Poor,,,2026-06-20T03:01:20.621812
"Pudahuel, Chile",Chile,-33.437811379126,-70.750171233135,11.0,62.0,163.0,116.0,43.6,,36.8,163,Poor,,,2026-06-20T03:01:24.429932
"El Bosque, Chile",Chile,-33.547099645619,-70.666204101852,11.0,62.0,161.0,114.0,,,,161,Poor,,,2026-06-20T03:01:29.568483
"La Florida, Chile",Chile,-33.516630362266,-70.588123961971,10.0,66.0,159.0,84.0,34.7,5.8,20.7,159,Poor,,,2026-06-20T03:01:32.471451
"Rengo, Chile",Chile,-34.394541417902,-70.852981542328,9.7,92.7,159.0,84.0,,,,159,Poor,,,2026-06-20T03:01:35.434259
"Rancagua II, Chile",Chile,-34.143888375919,-70.737131207664,9.7,93.1,155.0,75.0,,,,155,Poor,,,2026-06-20T03:01:38.629363
"Puente Alto, Chile",Chile,-33.591390623022,-70.594788,11.0,62.0,152.0,86.0,32.9,,31.7,152,Poor,,,2026-06-20T03:01:41.570856
"Quilicura, Chile",Chile,-33.349626928347,-70.723792612552,11.0,62.0,147.0,100.0,,,,147,Poor,,,2026-06-20T03:01:46.645087
"San Fernando, Chile",Chile,-27.393267718517,-70.298615435165,13.0,100.0,144.0,60.0,,,,144,Poor,,,2026-06-20T03:01:50.436573
"Vialidad, Chile",Chile,-45.40680023471,-72.696259617805,2.0,93.0,139.0,,,,,139,Poor,,,2026-06-20T03:01:53.574630
"Osorno, Chile",Chile,-40.584478665958,-73.11871982209,9.8,88.5,127.0,52.0,,,,127,Poor,,,2026-06-20T03:01:56.646465
"Parque O'Higgins, Chile",Chile,-33.464142,-70.660797,11.0,62.0,127.0,102.0,40.2,,19.5,127,Poor,,,2026-06-20T03:02:00.476217
"Colegio Pedro Vergara Keller, Chile",Chile,-22.44283906304,-68.932546346863,10.0,21.0,112.0,90.0,,,,112,Poor,,,2026-06-20T03:02:06.440993
"Centenario, Buenos Aires, Argentina",Argentina,-34.635582,-58.5518647,14.0,62.0,,23.0,6.4,,3.8,-,,,,2026-06-20T03:02:10.577822
"Cordoba, Buenos Aires, Argentina",Argentina,-34.5995674,-58.3915767,12.2,81.0,,24.0,6.9,,6.6,-,,,,2026-06-20T03:02:13.478008
"La boca, Buenos Aires, Argentina",Argentina,-34.6344961,-58.3631337,15.5,67.0,,20.0,12.8,,3.6,-,,,,2026-06-20T03:02:17.208011
"US Embassy, Buenos Aires, Argentina",Argentina,-34.5773,-58.4176,25.0,72.9,5.0,,,,,5,Good,,,2026-06-20T03:02:22.445449
"Dock Sud 1, Acumar, Argentina",Argentina,-34.657988,-58.342538,23.8,65.3,,,,,,-,,,,2026-06-20T03:02:25.652253
"La Matanza, Acumar, Argentina",Argentina,-34.6775885,-58.701767,20.2,88.8,,,,,,-,,,,2026-06-20T03:02:29.482876
"Argentina, Asturias, Spain",Argentina,43.53880000013,-5.6989000001636,19.3,92.0,34.0,9.0,8.3,3.6,0.1,34,Good,,,2026-06-20T03:02:32.587691
